City_ID,City,Lat,Lng,Max Temp,Humidity,Cloudiness,Wind Speed,Country,Date
0,bilibino,68.0546,166.4372,16.51,37,89,2.6,RU,1691628469
1,lianhe,47.1333,129.2667,20.89,95,100,1.16,CN,1691628827
2,adamstown,-25.066,-130.1015,19.26,60,100,9.46,PN,1691628462
3,edinburgh of the seven seas,-37.0676,-12.3116,10.57,58,52,10.93,SH,1691628653
4,margaret river,-33.95,115.0667,10.55,86,100,2.07,AU,1691628459
5,semera,11.501,41.201,25.94,55,100,1.39,ET,1691628723
6,vila velha,-20.3297,-40.2925,22.97,87,75,3.6,BR,1691628827
7,petropavlovsk-kamchatsky,53.0452,158.6483,20.33,52,20,2.0,RU,1691628695
8,enewetak,11.3474,162.3373,28.71,75,78,6.49,MH,1691628650
9,iqaluit,63.7506,-68.5145,5.85,93,100,4.12,CA,1691628462
10,utrik,11.2278,169.8474,28.28,71,35,5.23,MH,1691628649
11,yellowknife,62.456,-114.3525,22.29,40,75,6.71,CA,1691628648
12,turpan,42.9333,89.1667,33.87,23,4,0.18,CN,1691628828
13,blackmans bay,-43.0167,147.3167,14.07,67,97,2.72,AU,1691628648
14,whitehorse,60.7161,-135.0538,21.72,40,75,1.54,CA,1691628535
15,ribeira grande,38.5167,-28.7,20.99,87,100,1.34,PT,1691628664
16,afaahiti,-17.75,-149.2833,27.93,72,100,6.37,PF,1691628677
17,peace river,56.2501,-117.286,17.17,94,100,2.06,CA,1691628748
18,vorgashor,67.5833,63.95,10.32,74,95,3.95,RU,1691628708
19,grytviken,-54.2811,-36.5092,-5.04,96,93,1.44,GS,1691628462
20,port-aux-francais,-49.35,70.2167,3.17,80,100,11.58,TF,1691628645
21,west island,-12.1568,96.8225,24.99,83,100,6.17,CC,1691628645
22,new norfolk,-42.7826,147.0587,14.72,79,100,2.32,AU,1691628374
23,puerto ayora,-0.7393,-90.3518,24.75,91,37,3.13,EC,1691628646
24,seydi,39.4816,62.9137,27.58,31,0,3.63,TM,1691628830
25,hawaiian paradise park,19.5933,-154.9731,28.74,73,75,4.63,US,1691628689
26,puerto colombia,10.9878,-74.9547,24.05,84,100,6.8,CO,1691628830
27,atafu village,-8.5421,-172.5159,28.16,78,35,6.53,TK,1691628661
28,katsuura,35.1333,140.3,27.2,82,100,4.72,JP,1691628418
29,polyarnyy,69.1989,33.4478,16.98,78,0,3.21,RU,1691628831
30,invercargill,-46.4,168.35,7.79,75,28,0.89,NZ,1691628660
31,turochak,52.2576,87.1224,16.67,75,7,1.07,RU,1691628831
32,papatowai,-46.5619,169.4708,5.42,76,34,3.47,NZ,1691628648
33,debre birhan,9.6833,39.5333,10.03,81,100,0.71,ET,1691628831
34,laguna,38.421,-121.4238,33.9,37,0,4.63,US,1691628714
35,diapaga,12.0708,1.7889,22.93,95,100,4.16,BF,1691628832
36,ancud,-41.8697,-73.8203,9.74,85,100,6.87,CL,1691628480
37,loppi,60.7167,24.45,12.11,97,6,2.04,FI,1691628832
38,ola,59.5833,151.2833,18.97,53,2,0.91,RU,1691628698
39,georgetown,5.4112,100.3354,27.19,90,40,1.03,MY,1691628591
40,crucecita,-28.95,-58.9833,15.61,90,3,2.5,AR,1691628832
41,nar'yan-mar,67.6713,53.087,10.52,87,0,2.53,RU,1691628656
42,uturoa,-16.7333,-151.4333,24.97,70,98,7.84,PF,1691628738
43,talnakh,69.4865,88.3972,13.45,61,100,2.43,RU,1691628674
44,waitangi,-43.9535,-176.5597,11.01,75,10,2.68,NZ,1691628646
45,carnarvon,-24.8667,113.6333,21.62,58,0,0.69,AU,1691628473
46,charters towers,-20.1,146.2667,22.09,46,5,4.82,AU,1691628833
47,lecheng,25.1238,113.3254,29.14,82,100,0.39,CN,1691628833
48,saint-philippe,-21.3585,55.7679,19.77,83,38,4.01,RE,1691628731
49,kudahuvadhoo,2.6708,72.8944,27.16,79,100,5.03,MV,1691628833
50,wailua homesteads,22.0669,-159.378,32.24,72,40,9.26,US,1691628653
51,keflavik,64.0049,-22.5624,11.95,76,0,3.6,IS,1691628658
52,mount gambier,-37.8333,140.7667,11.6,72,99,3.71,AU,1691628657
53,tiksi,71.6872,128.8694,20.62,40,40,3.47,RU,1691628834
54,behshahr,36.6923,53.5526,26.95,42,0,1.84,IR,1691628834
55,batamshinskiy,50.5594,58.2747,16.28,76,0,8.14,KZ,1691628834
56,quepos,9.4236,-84.1652,27.02,87,100,1.51,CR,1691628834
57,alice springs,-23.7,133.8833,21.75,24,0,2.57,AU,1691628508
58,tazacorte,28.629,-17.9293,23.54,94,0,5.14,ES,1691628654
59,kodiak,57.79,-152.4072,14.73,72,100,2.57,US,1691628474
60,la passe,45.5549,-0.8967,22.21,57,42,2.88,FR,1691628487
61,bethel,41.3712,-73.414,25.98,69,0,3.09,US,1691628366
62,balykchy,42.4557,76.1861,19.33,88,0,0.33,KG,1691628835
63,ushuaia,-54.8,-68.3,5.81,70,75,3.09,AR,1691628646
64,sakaiminato,35.55,133.2333,32.96,58,75,9.77,JP,1691628836
65,vilyuchinsk,52.9306,158.4028,21.15,62,2,0.81,RU,1691628647
66,kirillov,59.863,38.3813,16.49,93,73,1.7,RU,1691628836
67,becerril,9.7041,-73.2793,24.45,94,100,2.54,CO,1691628836
68,albany,42.6001,-73.9662,21.6,76,0,2.43,US,1691628405
69,taroa,8.7058,171.2275,27.85,76,13,4.89,MH,1691628836
70,badger,64.8,-147.5333,22.67,74,75,4.12,US,1691628684
71,manta,-0.95,-80.7333,25.88,78,75,7.6,EC,1691628837
72,najafabad,32.6344,51.3668,17.3,29,2,1.19,IR,1691628837
73,port mathurin,-19.6833,63.4167,22.29,73,10,6.53,MU,1691628650
74,tornio,65.8481,24.1466,11.01,83,99,4.14,FI,1691628837
75,puerto natales,-51.7236,-72.4875,1.48,95,60,1.91,CL,1691628460
76,igarka,67.4667,86.5833,14.66,90,100,1.39,RU,1691628675
77,ulsteinvik,62.3432,5.8487,12.64,92,100,3.58,NO,1691628729
78,dudinka,69.4058,86.1778,13.68,66,100,9.2,RU,1691628651
79,rijau,11.103,5.2507,21.95,97,92,3.56,NG,1691628838
80,guerrero negro,27.9769,-114.0611,24.33,72,5,8.59,MX,1691628681
81,merizo village,13.2658,144.6691,27.31,93,100,8.04,GU,1691628838
82,bredasdorp,-34.5322,20.0403,10.05,92,0,1.66,ZA,1691628644
83,qaqortoq,60.7167,-46.0333,6.47,82,11,0.85,GL,1691628668
84,senanga,-16.1167,23.2667,14.29,45,2,3.2,ZM,1691628838
85,tandil,-37.3217,-59.1332,10.94,95,100,3.45,AR,1691628545
86,labasa,-16.4167,179.3833,26.91,74,73,1.56,FJ,1691628839
87,garoowe,8.4054,48.4845,23.36,66,13,10.88,SO,1691628839
88,dunedin,-45.8742,170.5036,8.22,58,80,3.58,NZ,1691628659
89,bengkulu,-3.8004,102.2655,24.79,83,15,1.83,ID,1691628558
90,horta,38.5333,-28.6333,20.57,87,100,1.34,PT,1691628676
91,huarmey,-10.0681,-78.1522,19.65,83,24,4.33,PE,1691628655
92,seme,15.1942,-12.9448,30.71,48,100,5.32,SN,1691628840
93,queenstown,-31.8976,26.8753,8.7,87,33,0.34,ZA,1691628840
94,hermanus,-34.4187,19.2345,12.67,77,0,4.23,ZA,1691628645
95,vadso,70.0744,29.7487,19.49,88,9,3.09,NO,1691628416
96,big bend,-26.8167,31.9333,17.04,86,98,1.04,SZ,1691628840
97,itaituba,-4.2761,-55.9836,27.14,62,29,1.32,BR,1691628841
98,gislaved,57.3044,13.5408,13.66,85,100,3.9,SE,1691628841
99,kingston,17.997,-76.7936,30.53,81,20,4.63,JM,1691628480
100,longyearbyen,78.2186,15.6401,10.91,58,0,2.06,SJ,1691628657
101,tura,25.5198,90.2201,24.33,96,100,1.01,IN,1691628841
102,kolleda,51.1833,11.2333,15.58,84,100,1.14,DE,1691628841
103,poplar bluff,36.757,-90.3929,22.88,67,100,2.57,US,1691628841
104,uliastay,47.7417,96.8444,16.5,69,50,0.78,MN,1691628842
105,miandrivazo,-19.5167,45.4667,19.92,61,0,0.75,MG,1691628842
106,lata,40.1629,-8.3327,15.45,95,6,0.97,PT,1691628711
107,olonkinbyen,70.9221,-8.7187,6.36,99,100,4.09,SJ,1691628663
108,jamestown,42.097,-79.2353,22.8,60,0,3.09,US,1691628672
109,egilsstadir,65.2653,-14.3948,6.95,76,40,1.03,IS,1691628478
110,papao,-17.75,-149.55,28.82,73,100,6.79,PF,1691628726
111,salamanca,40.8333,-6.0,17.88,62,0,2.03,ES,1691628741
112,kapuskasing,49.4169,-82.4331,22.05,68,75,2.06,CA,1691628432
113,meihekou,42.5272,125.6753,21.21,84,100,3.45,CN,1691628843
114,birao,10.2849,22.7882,21.12,98,100,0.88,CF,1691628843
115,avarua,-21.2078,-159.775,25.03,69,20,7.72,CK,1691628463
116,sitka,57.0531,-135.33,15.94,82,100,4.12,US,1691628844
117,touros,-5.1989,-35.4608,24.12,83,32,6.01,BR,1691628366
118,alofi,-19.0595,-169.9187,27.94,83,75,3.6,NU,1691628844
119,tomatlan,19.9333,-105.25,29.53,80,56,1.54,MX,1691628654
120,san pedro pochutla,15.7333,-96.4667,31.84,81,64,1.37,MX,1691628845
121,tequila,20.8833,-103.8333,24.6,70,66,2.24,MX,1691628845
122,stanley,54.868,-1.6985,16.55,91,20,3.6,GB,1691628647
123,el porvenir,13.7617,-87.3458,29.63,61,90,1.32,HN,1691628845
124,usogorsk,63.4106,48.6872,15.36,83,25,0.06,RU,1691628845
125,wuzhen,30.7454,120.4851,31.11,78,60,4.16,CN,1691628846
126,tambacounda,13.7539,-13.7586,31.03,70,0,5.14,SN,1691628846
127,mermoz boabab,14.7065,-17.4758,27.88,74,40,2.06,SN,1691628846
128,khao wong,16.7001,104.0902,26.59,85,93,3.27,TH,1691628847
129,kiruna,67.8557,20.2251,7.51,93,5,1.03,SE,1691628847
130,kidal,18.4411,1.4078,32.21,44,38,4.6,ML,1691628683
131,sholokhovskiy,48.2807,41.0459,22.8,64,2,2.9,RU,1691628847
132,mahibadhoo,3.7833,72.9667,27.82,78,100,6.1,MV,1691628847
133,turaif,31.6725,38.6637,25.14,22,0,3.09,SA,1691628847
134,uberaba,-19.7483,-47.9319,24.32,41,0,2.57,BR,1691628848
135,tamanrasset,22.785,5.5228,24.95,33,82,2.06,DZ,1691628848
136,kansk,56.2017,95.7175,18.15,77,88,2.32,RU,1691628848
137,baker city,44.7749,-117.8344,27.84,35,40,5.14,US,1691628826
138,shimoda,34.6667,138.95,30.2,76,46,6.13,JP,1691628728
139,tazovsky,67.4667,78.7,8.23,82,100,9.32,RU,1691628686
140,hadibu,12.65,54.0333,25.5,81,100,8.68,YE,1691628464
141,porto seguro,-16.4497,-39.0647,22.29,73,20,2.06,BR,1691628849
142,fale old settlement,-9.3852,-171.2468,28.15,79,22,7.15,TK,1691628849
143,college,64.8569,-147.8028,22.72,70,75,4.12,US,1691628661
144,san patricio,28.017,-97.5169,33.43,64,0,8.53,US,1691628477
145,grand falls-windsor,48.9332,-55.6649,14.17,88,100,3.88,CA,1691628849
146,kralupy nad vltavou,50.2411,14.3115,13.67,94,0,1.54,CZ,1691628850
147,klyuchi,52.2667,79.1667,20.3,50,64,2.31,RU,1691628678
148,hell-ville,-13.4,48.2667,23.61,74,20,1.5,MG,1691628850
149,zhigalovo,54.8097,105.1578,17.11,97,100,5.64,RU,1691628850
150,belyy yar,53.6039,91.3903,17.94,77,0,3.0,RU,1691628850
151,ust-nera,64.5667,143.2,19.98,48,7,1.48,RU,1691628654
152,luderitz,-26.6481,15.1594,22.79,41,100,3.44,NA,1691628437
153,santana,-0.0583,-51.1817,29.1,79,75,5.14,BR,1691628632
154,lompoc,34.6391,-120.4579,27.23,78,0,2.57,US,1691628654
155,kailua-kona,19.6406,-155.9956,29.98,73,75,5.14,US,1691628851
156,ramshir,30.8946,49.4092,31.86,25,16,3.32,IR,1691628851
157,dori,14.0354,-0.0345,25.87,79,100,3.35,BF,1691628851
158,okahandja,-21.9833,16.9167,16.35,30,38,4.08,NA,1691628852
159,ngara,-2.5122,30.6558,15.29,53,6,1.03,TZ,1691628852
160,peterhead,57.5058,-1.7981,12.22,78,100,1.87,GB,1691628852
161,vilyuysk,63.7553,121.6247,21.74,40,0,4.82,RU,1691628852
162,colonia,50.9333,6.95,14.92,83,0,1.03,DE,1691628663
163,sigli,5.3848,95.9609,26.23,77,97,1.89,ID,1691628853
164,susuman,62.7833,148.1667,13.11,55,6,1.17,RU,1691628685
165,ibshaway,29.358,30.6814,25.6,65,0,4.28,EG,1691628853
166,cide,41.8921,33.0044,21.62,86,77,0.99,TR,1691628853
167,hilo,19.7297,-155.09,29.04,68,75,4.63,US,1691628458
168,port macquarie,-31.4333,152.9167,21.05,35,87,2.62,AU,1691628854
169,hancheng,32.5186,112.3522,28.34,75,1,2.14,CN,1691628854
170,kavieng,-2.5744,150.7967,28.28,74,100,7.29,PG,1691628854
171,greenland,43.0362,-70.8328,23.37,78,40,2.57,US,1691628854
172,port alfred,-33.5906,26.891,15.1,90,0,0.89,ZA,1691628690
173,barcelos,41.5388,-8.6151,20.47,92,9,1.16,PT,1691628855
174,chinchilla,-26.75,150.6333,19.4,45,0,3.03,AU,1691628855
175,port blair,11.6667,92.75,28.02,83,40,3.09,IN,1691628855
176,kincardine,56.0667,-3.7167,18.44,92,79,1.87,GB,1691628855
177,basco,20.4487,121.9702,28.09,87,71,10.15,PH,1691628855
178,turner,44.2565,-70.2562,20.98,84,99,0.89,US,1691628855
179,la ronge,55.1001,-105.2842,20.14,45,40,5.66,CA,1691628856
180,port elizabeth,-33.918,25.5701,16.16,82,0,5.14,ZA,1691628661
181,kuqa,41.7278,82.9364,27.26,26,1,1.98,CN,1691628856
182,odienne,9.51,-7.5692,22.07,97,100,2.64,CI,1691628856
183,bac lieu,9.285,105.7244,28.8,75,77,6.36,VN,1691628856
184,san antonio de pale,-1.4014,5.6325,23.62,80,99,5.52,GQ,1691628857
185,caleta de carquin,-11.0925,-77.6267,19.34,82,29,5.03,PE,1691628857
186,mejit,10.2753,170.8646,27.93,69,98,4.72,MH,1691628746
187,regina,50.4501,-104.6178,15.58,84,100,5.66,CA,1691628598
188,laojunmiao,39.8333,97.7333,20.04,58,100,1.4,CN,1691628713
189,ishigaki,24.3448,124.1572,30.07,89,40,3.09,JP,1691628857
190,pathein,16.7833,94.7333,26.23,90,100,2.33,MM,1691628858
191,tuskegee,32.424,-85.6916,28.96,71,100,0.72,US,1691628858
192,faro,37.0194,-7.9322,25.88,41,0,2.06,PT,1691628858
193,burabay,53.0838,70.3138,17.93,49,9,1.74,KZ,1691628858
194,kosh-agach,50.0,88.6667,12.61,72,15,0.99,RU,1691628858
195,hagere maryam,5.6333,38.2333,13.74,93,100,0.92,ET,1691628858
196,khorixas,-20.3667,14.9667,16.14,48,10,0.97,NA,1691628859
197,holdrege,40.4403,-99.3698,27.6,63,0,0.0,US,1691628859
198,montenegro,42.5,19.3,16.86,68,0,2.57,ME,1691628859
199,kyren,51.6828,102.1408,15.45,96,100,0.3,RU,1691628859
200,fisterra,42.9049,-9.2629,20.97,89,76,7.35,ES,1691628859
201,linfen,36.0889,111.5189,28.67,61,3,1.8,CN,1691628860
202,utica,43.1009,-75.2327,20.94,75,44,1.75,US,1691628860
203,timberlake,37.3207,-79.2575,25.11,81,0,0.0,US,1691628860
204,udachny,66.4167,112.4,21.14,46,77,6.0,RU,1691628667
205,p'ot'i,42.1462,41.672,25.11,90,95,2.2,GE,1691628860
206,natal,-5.795,-35.2094,23.36,94,40,4.63,BR,1691628861
207,iskateley,67.6803,53.1512,10.44,87,0,2.5,RU,1691628659
208,glace bay,46.1969,-59.957,18.94,97,100,6.69,CA,1691628697
209,dwarka,22.2394,68.9678,27.2,83,100,8.95,IN,1691628743
210,martapura,-3.4167,114.85,25.05,83,100,0.0,ID,1691628861
211,el calafate,-50.3408,-72.2768,1.48,86,11,1.78,AR,1691628500
212,wenchang,30.904,118.4887,29.0,77,100,1.34,CN,1691628862
213,kapa'a,22.0752,-159.319,32.99,72,40,9.26,US,1691628734
214,el jadid,33.2549,-8.506,22.23,91,8,5.41,MA,1691628686
215,klaksvik,62.2266,-6.589,7.51,79,19,4.19,FO,1691628862
216,hasaki,35.7333,140.8333,31.27,77,100,4.9,JP,1691628417
217,okhotsk,59.3833,143.3,17.92,59,16,3.19,RU,1691628680
218,valderice,38.0401,12.6151,21.55,88,0,1.54,IT,1691628862
219,masterton,-40.9597,175.6575,5.49,98,100,1.62,NZ,1691628863
220,brookings,44.3114,-96.7984,25.19,71,1,3.39,US,1691628533
221,arraial do cabo,-22.9661,-42.0278,20.98,83,36,8.15,BR,1691628695
222,waingapu,-9.6567,120.2641,26.66,65,94,6.91,ID,1691628863
223,basoko,1.2391,23.616,22.14,94,69,1.45,CD,1691628863
224,valle de la pascua,9.2155,-66.0073,24.15,90,100,0.68,VE,1691628864
225,taoudenni,22.6783,-3.9836,36.9,27,8,8.59,ML,1691628864
226,margate,51.3813,1.3862,15.39,80,0,3.19,GB,1691628704
227,waddan,29.1614,16.139,23.78,64,0,3.45,LY,1691628864
228,prado,-17.3411,-39.2208,21.77,74,0,3.12,BR,1691628865
229,vila franca do campo,37.7167,-25.4333,24.23,95,100,3.57,PT,1691628731
230,dodge city,37.7528,-100.0171,29.3,45,0,4.12,US,1691628737
231,gadzhiyevo,69.2551,33.3362,17.16,78,0,3.06,RU,1691628865
232,poxoreo,-15.8372,-54.3892,25.24,31,0,2.2,BR,1691628798
233,aasiaat,68.7098,-52.8699,3.14,89,83,4.32,GL,1691628658
234,kimbe,-5.5502,150.1429,29.73,57,35,6.35,PG,1691628866
235,mattapoisett,41.6584,-70.8161,25.11,71,0,5.36,US,1691628866
236,suonenjoki,62.6167,27.1333,17.89,69,100,1.57,FI,1691628866
237,labrador city,52.9463,-66.9114,11.95,94,100,3.09,CA,1691628735
238,presidente medici,-11.1753,-61.9014,30.7,37,79,1.81,BR,1691628866
239,launceston,-41.45,147.1667,13.52,87,40,4.63,AU,1691628867
240,mindif,10.3976,14.4363,22.6,89,100,2.15,CM,1691628867
241,gao,16.6362,1.637,30.47,53,37,5.21,ML,1691628664
242,anadyr,64.75,177.4833,12.28,71,75,5.81,RU,1691628644
243,i-n-salah,27.1935,2.4607,33.33,14,0,4.61,DZ,1691628868
244,juneau,58.3019,-134.4197,15.68,95,100,4.12,US,1691628616
245,flying fish cove,-10.4217,105.6791,24.82,83,75,5.66,CX,1691628656
246,mount pearl,47.5166,-52.7813,12.75,90,100,6.69,CA,1691628702
247,kish,26.5578,54.0194,34.15,66,23,3.09,IR,1691628868
248,mugia,43.1041,-9.2179,21.06,87,90,7.96,ES,1691628869
249,nantucket,41.2835,-70.0995,24.45,68,0,4.63,US,1691628703
250,kurumkan,54.3,110.3,17.02,97,100,1.36,RU,1691628869
251,holbrook,40.8123,-73.0784,27.92,62,75,0.0,US,1691628869
252,mirnyy,62.5353,113.9611,17.91,82,97,4.02,RU,1691628705
253,tororo,0.693,34.1809,17.36,81,22,1.67,UG,1691628870
254,selebi-phikwe,-21.979,27.8498,13.73,55,57,4.43,BW,1691628870
255,gazli,40.1333,63.45,28.52,30,0,4.15,UZ,1691628870
256,bukama,-9.2,25.85,21.21,36,9,1.04,CD,1691628870
257,rapar,23.5667,70.6333,27.13,79,100,7.41,IN,1691628871
258,plastun,44.7561,136.2939,16.92,98,100,3.63,RU,1691628439
259,selkirk,50.1436,-96.8845,20.05,69,50,4.98,CA,1691628871
260,lihue,21.9789,-159.3672,32.58,64,40,9.26,US,1691628663
261,cockburn town,21.4612,-71.1419,28.72,77,98,7.29,TC,1691628872
262,rongelap,11.1635,166.8941,28.13,76,14,4.52,MH,1691628872
263,geraldton,-28.7667,114.6,12.23,87,100,2.06,AU,1691628711
264,san blas,21.5167,-105.2667,31.94,69,1,0.94,MX,1691628872
265,hamilton,39.1834,-84.5333,24.69,85,20,3.6,US,1691628631
266,ouani,-12.1322,44.4258,23.97,76,4,5.06,KM,1691628873
267,kotabumi,-4.8333,104.9,25.99,82,45,2.38,ID,1691628873
268,bonthe,7.5264,-12.505,24.89,90,100,6.0,SL,1691628873
269,milazzo,38.2212,15.2383,24.43,75,10,2.24,IT,1691628873
270,coquimbo,-29.9533,-71.3436,13.85,94,100,1.54,CL,1691628714
271,isangel,-19.55,169.2667,21.74,58,4,8.24,VU,1691628874
272,sanghar,26.0466,68.9481,27.67,73,8,8.82,PK,1691628874
273,nuuk,64.1835,-51.7216,5.34,93,100,6.17,GL,1691628874
274,linxia chengguanzhen,35.6003,103.2064,22.86,71,58,0.7,CN,1691628874
275,happy valley-goose bay,53.3168,-60.3315,16.17,88,100,0.0,CA,1691628693
276,kununurra,-15.7667,128.7333,27.99,24,13,5.14,AU,1691628874
277,hithadhoo,-0.6,73.0833,27.08,75,75,2.39,MV,1691628712
278,yangchun,22.1667,111.7833,29.25,77,90,0.98,CN,1691628875
279,wick,58.4333,-3.0833,13.03,82,100,2.06,GB,1691628875
280,al kharijah,25.4514,30.5464,29.69,19,0,4.25,EG,1691628875
281,constantia,44.1833,28.65,16.5,70,36,5.86,RO,1691628731
282,sodankyla,67.4167,26.6,14.43,96,33,0.71,FI,1691628875
283,rudnyy,52.9594,63.1206,16.13,64,100,5.01,KZ,1691628875
284,barcarena,-1.5058,-48.6258,26.03,90,100,4.03,BR,1691628626
285,port lincoln,-34.7333,135.8667,14.03,58,27,3.71,AU,1691628478
286,turinsk,58.0458,63.696,15.32,81,100,2.56,RU,1691628737
287,belo sur tsiribihina,-19.7,44.55,17.56,94,0,1.94,MG,1691628876
288,chicoana,-25.1009,-65.5331,14.47,39,7,1.46,AR,1691628876
289,ketchikan,55.3422,-131.6461,14.26,100,100,5.14,US,1691628830
290,veraval,20.9,70.3667,26.93,86,100,7.46,IN,1691628876
291,kabin buri,13.9511,101.7177,25.84,83,34,1.79,TH,1691628877
292,turnhout,51.3225,4.9447,13.77,89,5,0.61,BE,1691628877
293,tidjikja,18.5564,-11.4271,33.27,23,2,5.29,MR,1691628877
294,ostersund,63.1792,14.6357,9.25,100,51,4.63,SE,1691628877
295,tocopilla,-22.092,-70.1979,18.39,72,2,3.65,CL,1691628877
296,isafjordur,66.0755,-23.124,7.45,79,62,3.08,IS,1691628460
297,dongola,19.1667,30.4833,32.81,42,12,3.33,SD,1691628690
298,cabo san lucas,22.8909,-109.9124,33.67,70,75,5.14,MX,1691628715
299,belmonte,-15.8631,-38.8828,21.96,72,0,3.57,BR,1691628878
300,saipan,15.1355,145.701,29.39,100,75,5.14,MP,1691628655
301,kozarska dubica,45.1767,16.8094,16.06,88,82,1.57,BA,1691628878
302,naifaru,5.4444,73.3657,27.69,80,100,6.85,MV,1691628878
303,hluti,-27.2167,31.6167,14.93,82,99,1.01,SZ,1691628742
304,sao gabriel da cachoeira,-0.1303,-67.0892,23.99,89,34,0.63,BR,1691628879
305,stralsund,54.3091,13.0818,14.45,86,62,5.11,DE,1691628879
306,nouadhibou,20.931,-17.0347,21.99,88,40,8.23,MR,1691628879
307,raychikhinsk,49.7838,129.4121,19.1,78,99,3.9,RU,1691628879
308,rio do sul,-27.2142,-49.6431,16.33,100,100,0.54,BR,1691628879
309,hirara,24.8,125.2833,29.15,84,40,3.09,JP,1691628879
310,rio grande,-32.035,-52.0986,16.06,92,100,7.89,BR,1691628880
311,porto velho,-8.7619,-63.9039,25.03,94,20,1.03,BR,1691628880
312,sztum,53.9208,19.0307,12.97,81,89,3.16,PL,1691628857
313,tolanaro,-25.0319,46.9987,19.04,94,20,1.54,MG,1691628695
314,hammerfest,70.6634,23.6821,20.25,73,0,2.06,NO,1691628466
315,thanh hoa,19.8,105.7667,29.36,71,86,0.94,VN,1691628880
316,thoen,17.6129,99.2161,24.75,93,99,1.19,TH,1691628881
317,nizhneudinsk,54.9076,99.0276,19.39,71,100,1.37,RU,1691628881
318,reserve,30.0538,-90.5518,33.32,70,0,3.09,US,1691628881
319,aleksandrov gay,50.147,48.5704,22.4,48,0,3.4,RU,1691628881
320,clearwater,27.9659,-82.8001,32.73,75,0,3.09,US,1691628712
321,zhanaozen,43.3,52.8,28.71,36,3,2.54,KZ,1691628881
322,khawr fakkan,25.3313,56.342,29.03,82,7,1.59,AE,1691628881
323,mildura,-34.2,142.15,13.37,75,1,5.37,AU,1691628882
324,thompson,55.7435,-97.8558,20.09,45,40,3.09,CA,1691628354
325,yazman,29.1212,71.7446,30.09,60,93,7.32,PK,1691628882
326,bardai,11.65,7.2333,21.28,93,100,3.28,NG,1691628660
327,nadvoitsy,63.8667,34.3167,16.14,85,0,3.09,RU,1691628882
328,lucerne valley,34.4439,-116.9678,29.83,56,11,4.6,US,1691628882
329,malard,35.6659,50.9767,27.1,56,0,3.09,IR,1691628882
330,yumbe,3.4651,31.2469,18.21,93,76,1.17,UG,1691628883
331,nova sintra,14.8667,-24.7167,22.82,74,100,7.74,CV,1691628664
332,bikenibeu village,1.3673,173.1241,31.98,66,20,2.57,KI,1691628883
333,newman,37.3138,-121.0208,35.16,44,0,1.79,US,1691628712
334,oak grove,45.4168,-122.6401,27.91,56,75,2.06,US,1691628883
335,santa elena de uairen,4.6167,-61.1333,20.18,87,63,1.44,VE,1691628883
336,kalmunai,7.4167,81.8167,26.19,81,100,2.92,LK,1691628883
337,codrington,-38.2667,141.9667,11.56,75,100,6.85,AU,1691628470
338,saint-pierre,-21.3393,55.4781,20.32,64,0,4.12,RE,1691628884
339,ilulissat,69.2167,-51.1,6.01,93,75,3.6,GL,1691628666
340,goure,13.9835,10.2704,27.42,61,100,4.06,NE,1691628884
341,geneina,13.45,22.45,21.23,94,98,2.81,SD,1691628884
342,kayenta,36.7278,-110.2546,28.14,25,87,8.13,US,1691628884
343,flin flon,54.7682,-101.865,19.2,38,11,2.46,CA,1691628885
344,mpongwe,-13.5091,28.155,13.93,42,0,3.57,ZM,1691628885
345,itoman,26.1247,127.6694,29.21,89,20,1.54,JP,1691628886
346,olyokminsk,60.3736,120.4264,24.58,61,6,1.59,RU,1691628886
347,nikolayevsk-on-amure,53.1406,140.73,21.39,51,44,1.88,RU,1691628503
348,shevchenko,48.5,35.0,16.91,70,0,3.65,UA,1691628886
349,altamira,-3.2033,-52.2064,24.22,85,97,1.71,BR,1691628886
350,toliara,-23.35,43.6667,19.46,85,0,6.49,MG,1691628701
351,piti village,13.4626,144.6933,27.49,93,40,2.57,GU,1691628886
352,pisco,-13.7,-76.2167,19.03,82,20,6.69,PE,1691628887
353,gracemere,-23.4333,150.45,20.95,60,11,4.12,AU,1691628887
354,arvayheer,46.2639,102.775,19.59,53,0,1.64,MN,1691628887
355,acarau,-2.8856,-40.12,25.07,83,60,5.83,BR,1691628491
356,sinabang,2.4803,96.3801,25.28,87,100,1.7,ID,1691628720
357,intendente alvear,-35.2338,-63.592,12.95,63,95,5.19,AR,1691628667
358,badiyah,22.45,58.8,28.54,54,94,2.22,OM,1691628887
359,benque viejo el carmen,17.075,-89.1392,32.01,70,75,3.09,BZ,1691628887
360,al jawf,29.5,38.75,29.22,26,0,2.97,SA,1691628888
361,shache,38.4167,77.2406,23.73,25,0,1.79,CN,1691628888
362,korla,41.7597,86.1469,29.17,21,0,4.83,CN,1691628525
363,tangalle,6.024,80.7911,25.09,90,100,4.39,LK,1691628888
364,junagarh,19.8667,82.9333,24.3,85,100,1.64,IN,1691628888
365,rodolfo sanchez taboada,31.7167,-116.5667,23.39,72,89,1.34,MX,1691628890
366,oneonta,42.4529,-75.0638,19.61,95,8,1.46,US,1691628890
367,ratnagiri,16.9833,73.3,25.74,84,100,1.11,IN,1691628890
368,kavaratti,10.5669,72.642,27.54,79,100,7.28,IN,1691628698
369,dass,10.0,9.5167,21.88,91,100,1.18,NG,1691628890
370,magadan,59.5667,150.8,18.63,57,1,0.76,RU,1691628890
371,ilhabela,-23.7781,-45.3581,20.29,93,100,6.3,BR,1691628881
372,bamboo flat,11.7,92.7167,28.05,83,40,3.09,IN,1691628891
373,borogontsy,62.6683,131.1683,22.07,38,40,3.87,RU,1691628724
374,san luis de la loma,17.2706,-100.8939,28.5,81,100,1.72,MX,1691628721
375,bam,29.106,58.357,29.21,22,51,4.44,IR,1691628506
376,pimentel,-6.8367,-79.9342,23.16,78,75,6.17,PE,1691628685
377,qaisumah,28.3112,46.1273,31.98,15,0,3.09,SA,1691628891
378,smithers,54.7804,-127.1743,20.18,45,75,4.12,CA,1691628716
379,znamenskoye,57.1281,73.8282,11.91,89,100,2.47,RU,1691628891
380,embrun,44.5639,6.4953,16.81,71,0,1.94,FR,1691628892
381,naama,33.2667,-0.3167,28.63,27,1,4.01,DZ,1691628892
382,beloyarskiy,63.7119,66.6722,11.66,76,23,3.03,RU,1691628892
383,dali,25.7,100.1833,18.79,91,100,0.74,CN,1691628892
384,coruripe,-10.1256,-36.1756,22.98,85,42,4.29,BR,1691628892
385,meftah,36.6204,3.2225,21.64,78,0,1.54,DZ,1691628892
386,barclayville,4.6797,-8.2339,23.83,84,93,4.09,LR,1691628893
387,kaiapoi,-43.3783,172.6401,7.53,67,75,8.23,NZ,1691628893
388,kruisfontein,-34.0033,24.7314,11.05,89,0,2.53,ZA,1691628727
389,balabac,7.9868,117.0645,29.02,74,57,4.93,PH,1691628893
390,ghat,24.9647,10.1728,27.8,18,0,2.7,LY,1691628893
391,goz beida,13.95,20.55,24.14,84,100,1.76,TD,1691628720
392,freetown,8.484,-13.2299,24.84,94,75,6.17,SL,1691628681
393,richards bay,-28.783,32.0377,18.83,70,98,1.77,ZA,1691628893
394,inongo,-1.95,18.2667,20.53,86,100,2.88,CD,1691628894
395,tual,-5.6667,132.75,25.66,81,81,9.74,ID,1691628894
396,ugoofaaru,5.6667,73.0,27.71,79,100,7.22,MV,1691628894
397,qamdo,31.1667,97.2333,12.02,61,97,1.77,CN,1691628722
398,celestun,20.8667,-90.4,28.9,77,57,6.71,MX,1691628894
399,karmaskaly,54.3709,56.1837,13.95,77,1,1.76,RU,1691628702
400,arar,30.9753,41.0381,30.01,10,0,4.12,SA,1691628894
401,kandyagash,49.4744,57.4233,15.99,84,0,5.64,KZ,1691628894
402,aldinga beach,-35.2793,138.4604,14.55,66,5,3.87,AU,1691628687
403,rockland,41.1668,-74.0496,26.91,70,5,2.1,US,1691628734
404,youghal,51.95,-7.8506,16.42,100,36,5.07,IE,1691628895
405,alausi,-2.2,-78.8333,8.38,83,44,3.47,EC,1691628895
406,zliten,32.4674,14.5687,23.8,73,0,1.19,LY,1691628895
407,at taj,24.2049,23.2857,30.29,29,7,4.79,LY,1691628895
408,east london,-33.0153,27.9116,16.54,81,10,7.42,ZA,1691628687
409,port-gentil,-0.7193,8.7815,23.58,81,15,5.53,GA,1691628896
410,nelson bay,-32.7167,152.15,21.17,56,7,3.13,AU,1691628896
411,san juan,-31.5375,-68.5364,16.81,29,62,2.75,AR,1691628896
412,anupgarh,29.1911,73.2086,30.06,62,25,7.21,IN,1691628896
413,ulladulla,-35.35,150.4667,18.72,40,57,6.17,AU,1691628896
414,lebu,-37.6167,-73.65,11.68,90,100,5.78,CL,1691628440
415,aykhal,66.0,111.5,18.25,61,96,6.02,RU,1691628896
416,montmagny,48.9734,2.3469,18.36,82,0,1.54,FR,1691628897
417,road town,18.4167,-64.6167,29.05,79,20,7.2,VG,1691628532
418,sisimiut,66.9395,-53.6735,4.79,91,100,3.84,GL,1691628897
419,kuraymah,18.55,31.85,30.81,49,44,3.24,SD,1691628897
420,san matias,-16.3667,-58.4,28.86,33,1,1.33,BO,1691628897
421,haiku-pauwela,20.9219,-156.3051,30.01,50,20,10.29,US,1691628479
422,suva,-18.1416,178.4415,27.71,54,75,4.12,FJ,1691628898
423,plesetsk,62.708,40.2916,14.28,95,0,2.07,RU,1691628898
424,kerikeri,-35.2268,173.9474,14.68,55,6,3.51,NZ,1691628477
425,chibougamau,49.9168,-74.3659,19.79,64,40,2.06,CA,1691628440
426,muroto-misakicho,33.2833,134.15,27.27,90,48,9.63,JP,1691628898
427,qarqaraly,49.4058,75.4742,18.11,76,95,2.81,KZ,1691628899
428,carahue,-38.7,-73.1667,9.88,94,44,2.4,CL,1691628899
429,temryuk,45.2722,37.3811,23.12,79,92,4.52,RU,1691628899
430,marka,1.7159,44.7717,23.87,87,34,6.42,SO,1691628899
431,kristiansund,63.1115,7.732,11.36,87,100,1.03,NO,1691628730
432,truckee,39.328,-120.1833,29.18,28,0,5.14,US,1691628899
433,vardenis,40.1827,45.7311,15.48,72,0,2.76,AM,1691628899
434,noumea,-22.2763,166.4572,18.99,68,61,7.28,NC,1691628618
435,salahonda,2.1019,-78.7217,27.33,81,100,4.57,CO,1691628900
436,piton saint-leu,-21.2196,55.3151,19.04,64,0,4.12,RE,1691628900
437,ramgarh,23.6333,85.5167,26.03,80,42,1.39,IN,1691628900
438,callao,-12.0667,-77.15,21.51,73,100,7.2,PE,1691628606
439,dondo,-19.6094,34.7431,21.73,87,100,2.31,MZ,1691628900
440,tromso,69.6496,18.957,16.88,72,6,1.54,NO,1691628901
441,parnu,58.3859,24.4971,9.05,100,10,2.57,EE,1691628802
442,barabai,-2.5833,115.3833,28.33,61,88,0.07,ID,1691628901
443,alajarvi,63.0,23.8167,13.87,76,100,2.03,FI,1691628901
444,mangrol,21.1167,70.1167,26.92,85,100,7.67,IN,1691628901
445,oberwart,47.2897,16.206,13.12,100,50,1.39,AT,1691628902
446,mount pleasant,32.7941,-79.8626,30.08,77,0,1.34,US,1691628902
447,punta arenas,-53.15,-70.9167,3.95,93,100,3.31,CL,1691628646
448,kievka,50.2619,71.5514,21.17,59,14,1.44,KZ,1691628902
449,karimganj,24.8667,92.35,25.05,98,100,1.15,IN,1691628903
450,petawawa,45.9001,-77.3328,20.99,72,48,1.49,CA,1691628903
451,summerland,49.5998,-119.6691,27.92,39,40,5.66,CA,1691628903
452,malango,-2.9627,119.9001,23.2,80,85,1.03,ID,1691628903
453,yugorsk,61.3133,63.3319,13.23,64,66,2.88,RU,1691628904
454,yaren,-0.5472,166.916,28.12,73,98,2.58,NR,1691628718
455,brak,27.5496,14.2714,26.45,34,0,5.5,LY,1691628904
456,malvan,16.0667,73.4667,26.07,83,80,1.08,IN,1691628904
457,las khorey,11.1595,48.1967,31.43,51,22,5.93,SO,1691628652
458,bairnsdale,-37.8333,147.6167,10.5,83,100,5.2,AU,1691628905
459,ungsang,35.4061,129.1686,25.34,97,100,7.09,KR,1691628905
460,barra de santo antonio,-9.4047,-35.5072,22.6,80,5,4.57,BR,1691628672
461,trairi,-3.2778,-39.2689,24.86,84,43,3.9,BR,1691628905
462,lycksele,64.5954,18.6735,6.93,100,99,0.0,SE,1691628742
463,ranot,7.7777,100.3213,27.68,73,100,3.57,TH,1691628906
464,puyang chengguanzhen,35.7028,115.0053,28.51,67,2,3.52,CN,1691628906
465,pavlohrad,48.5167,35.8667,16.88,71,0,4.41,UA,1691628906
466,mzuzu,-11.4656,34.0207,11.55,76,7,1.85,MW,1691628906
467,xining,36.6167,101.7667,19.65,70,44,1.07,CN,1691628907
468,usinsk,65.9939,57.5281,10.0,78,4,3.72,RU,1691628510
469,khanty-mansiysk,61.0042,69.0019,11.06,87,0,2.0,RU,1691628907
470,parras de la fuente,25.4167,-102.1833,32.46,15,8,3.23,MX,1691628836
471,port saint john's,-31.6229,29.5448,16.92,84,59,4.15,ZA,1691628675
472,zavodskoy,43.4597,132.2922,21.77,100,75,2.0,RU,1691628908
473,vicuna,-30.0319,-70.7081,9.85,75,100,1.41,CL,1691628908
474,okha,53.5739,142.9478,15.38,81,97,3.4,RU,1691628908
475,anna regina,7.2644,-58.5077,27.89,73,100,5.23,GY,1691628908
476,conduaga,8.862,117.4893,28.65,77,100,3.32,PH,1691628908
477,wau,7.7029,27.9953,20.43,97,100,1.51,SS,1691628909
478,sao felix do xingu,-6.6447,-51.995,28.95,49,96,1.32,BR,1691628708
479,marolambo,-20.05,48.1167,14.43,98,10,0.8,MG,1691628909
480,sodra sandby,56.5667,16.6167,12.72,86,100,7.42,SE,1691628909
481,mukachevo,48.4419,22.7179,16.58,66,100,1.92,UA,1691628909
482,naze,28.3667,129.4833,27.51,80,16,5.12,JP,1691628496
483,nordhorn,52.4333,7.0833,13.49,94,8,1.87,DE,1691628910
484,al majaridah,19.1236,41.9111,31.46,35,5,1.27,SA,1691628910
485,malakal,9.5334,31.6605,23.1,90,100,1.66,SS,1691628910
486,kismayo,-0.3582,42.5454,23.96,83,97,6.05,SO,1691628910
487,arish,31.1316,33.7984,25.16,72,0,1.7,EG,1691628911
488,bathsheba,13.2167,-59.5167,28.34,83,20,4.63,BB,1691628651
489,veinticinco de mayo,-35.4323,-60.1727,11.1,78,100,0.89,AR,1691628911
490,kone,-21.0595,164.8658,20.44,56,76,6.92,NC,1691628911
491,satsuma,30.8532,-88.0561,32.06,67,0,4.02,US,1691628911
492,kiunga,-6.1219,141.2906,26.3,67,89,2.24,PG,1691628912
493,saldanha,-33.0117,17.9442,11.03,70,0,2.59,ZA,1691628912
494,nagqu,31.5,92.0,8.68,74,14,1.6,CN,1691628912
495,nyurba,63.2842,118.3319,22.67,50,12,4.26,RU,1691628519
496,devonport,-41.1667,146.35,13.62,79,92,0.89,AU,1691628913
497,verdal,63.7933,11.4817,14.02,76,96,5.7,NO,1691628913
498,awjilah,29.1081,21.2869,25.32,57,0,5.55,LY,1691628913
499,yerofey pavlovich,53.9667,121.9667,22.51,50,24,2.01,RU,1691628913
500,bossangoa,6.4926,17.4552,20.06,98,100,0.66,CF,1691628914
501,winchester,51.0651,-1.3187,15.85,91,0,0.51,GB,1691628914
502,howard springs,-12.497,131.047,27.68,39,52,5.26,AU,1691628505
503,cill airne,52.05,-9.5167,16.98,86,95,4.89,IE,1691628914
504,salekhard,66.53,66.6019,11.49,74,14,2.3,RU,1691628915
505,port douglas,-16.4833,145.4667,22.61,72,98,7.42,AU,1691628400
506,alameda,37.5999,-121.8844,31.19,54,0,5.66,US,1691628915
507,kamloops,50.6665,-120.3192,24.55,61,75,4.12,CA,1691628915
508,talas,38.6908,35.5538,17.37,77,0,0.0,TR,1691628915
509,jayapura,-2.5333,140.7,29.66,67,16,1.67,ID,1691628915
510,vallenar,-28.5708,-70.7581,11.44,79,100,0.72,CL,1691628916
511,pagar alam,-4.0167,103.2667,23.49,70,26,0.45,ID,1691628916
512,asau,46.4333,26.4,11.51,64,100,0.59,RO,1691628916
513,juan griego,11.0817,-63.9655,28.07,78,100,2.06,VE,1691628916
514,collierville,35.042,-89.6645,27.06,92,0,4.12,US,1691628916
515,island harbour,50.724,-1.2758,16.63,92,0,2.32,GB,1691628917
516,freeport,40.6576,-73.5832,28.32,51,0,7.72,US,1691628884
517,lutuhyne,48.4051,39.2267,20.68,65,19,4.29,UA,1691628917
518,vernon,50.2581,-119.2691,28.5,49,92,1.03,CA,1691628675
519,francistown,-21.17,27.5079,10.68,63,0,3.84,BW,1691628917
520,ndioum,16.5129,-14.6471,28.94,50,12,7.59,SN,1691628917
521,pamukkale,37.9164,29.1173,22.52,79,0,1.25,TR,1691628917
522,bandar,2.05,99.75,24.23,96,71,0.39,ID,1691628918
523,anisoc,1.8658,10.7689,20.71,99,100,0.83,GQ,1691628918
524,wotho,10.1657,166.0102,28.29,75,87,4.73,MH,1691628918
525,levuka,50.1834,-105.4011,15.85,72,75,6.69,CA,1691628670
526,pita,10.8333,-12.5833,22.81,99,100,0.72,GN,1691628918
527,novodvinsk,64.4165,40.8122,14.93,95,0,2.17,RU,1691628709
528,doylestown,40.3101,-75.1299,26.66,70,0,1.54,US,1691628686
529,great falls,47.5002,-111.3008,29.25,28,0,8.23,US,1691628651
530,ain sukhna,29.6002,32.3167,25.4,72,0,2.71,EG,1691628919
531,mirny,62.5353,113.9611,17.91,82,97,4.02,RU,1691628705
532,hereford,52.0568,-2.7148,18.2,94,75,1.94,GB,1691628919
533,recani,31.2846,-4.2688,33.17,17,21,2.92,MA,1691628919
534,holualoa,19.6228,-155.9522,27.91,73,75,5.14,US,1691628695
535,palmer,42.1584,-72.3287,24.23,73,1,1.87,US,1691628725
536,namanyere,-7.5167,31.05,15.38,50,34,2.73,TZ,1691628920
537,olonets,60.9847,32.9698,14.55,97,96,1.39,RU,1691628920
538,bemidji,47.4736,-94.8803,19.47,62,0,4.63,US,1691628920
539,orapa,-21.2833,25.3667,12.71,52,0,7.32,BW,1691628921
540,prieska,-29.6641,22.7474,12.4,25,0,2.2,ZA,1691628921
541,zaozersk,69.4005,32.4476,17.83,77,0,1.89,RU,1691628921
542,romanovo,52.6182,81.2271,20.6,45,71,2.45,RU,1691628921
543,gaspe,48.8334,-64.4819,16.12,100,100,5.14,CA,1691628502
544,tsiombe,-25.3,45.4833,18.23,92,10,3.56,MG,1691628921
545,tafuna,-14.3358,-170.72,29.97,84,20,3.6,AS,1691628921
546,nadym,65.5333,72.5167,8.91,75,100,10.41,RU,1691628922
547,pacific grove,36.6177,-121.9166,21.8,85,75,5.14,US,1691628488
548,stephenville,32.2207,-98.2023,40.0,21,0,2.57,US,1691628922
549,ljusdal,61.8288,16.0913,9.57,99,89,2.08,SE,1691628922
550,fortuna,40.5982,-124.1573,21.07,80,75,5.66,US,1691628922
551,bafq,31.6128,55.4107,27.97,23,2,4.4,IR,1691628923
552,fort st. john,56.2499,-120.8529,22.94,43,75,6.69,CA,1691628923
553,alvaraes,-3.2208,-64.8042,26.73,60,17,0.54,BR,1691628923
554,karratha,-20.7377,116.8463,24.17,36,6,3.37,AU,1691628923
555,greenville,35.6127,-77.3663,28.09,74,0,1.54,US,1691628830
556,praia da vitoria,38.7333,-27.0667,22.64,94,100,2.26,PT,1691628713
557,saint-joseph,-21.3667,55.6167,19.71,78,26,2.47,RE,1691628924
558,valparaiso,-33.0393,-71.6273,14.44,68,40,3.09,CL,1691628924
559,dellys,36.9172,3.9131,25.97,57,0,2.52,DZ,1691628924
560,koryazhma,61.3143,47.1691,15.49,95,6,1.36,RU,1691628924
561,tomah,43.9786,-90.504,24.74,64,75,0.0,US,1691628924
562,eastham,41.8301,-69.9739,24.05,66,7,1.34,US,1691628925
563,prestea,5.4327,-2.1428,23.17,88,100,2.05,GH,1691628925
564,finote selam,10.7,37.2667,12.68,96,91,0.57,ET,1691628925
565,posto fiscal rolim de moura,-13.0833,-62.2667,28.28,40,26,0.35,BR,1691628925
566,sam roi yot,12.2708,99.872,27.99,70,99,3.89,TH,1691628926
567,rasskazovo,52.6714,41.9033,17.56,83,5,2.72,RU,1691628926
568,falun,60.6036,15.626,11.64,100,100,3.59,SE,1691628926
569,hovd,48.0056,91.6419,17.3,66,8,2.09,MN,1691628926
570,pangody,65.85,74.4859,9.5,75,99,9.06,RU,1691628927
571,fort-shevchenko,44.5086,50.263,27.64,68,0,1.86,KZ,1691628927
572,nadi,-17.8,177.4167,27.0,69,75,5.14,FJ,1691628927
573,sovetskaya gavan',48.9723,140.2878,16.52,81,100,4.29,RU,1691628927
574,phongsali,21.6833,102.1058,17.78,98,100,0.47,LA,1691628927
575,menomonie,44.8755,-91.9193,23.02,60,0,0.0,US,1691628927
576,preobrazheniye,42.9019,133.9064,19.17,98,100,5.97,RU,1691628928
577,charikar,35.0136,69.1714,19.95,34,0,2.29,AF,1691628928
578,ta`u,-14.2336,-169.5144,27.14,80,23,5.02,AS,1691628928
579,remire-montjoly,4.9167,-52.2667,27.02,83,0,3.6,GF,1691628498
580,salinas,36.6777,-121.6555,24.45,75,75,6.17,US,1691628710
581,cestos city,5.46,-9.5828,24.73,83,100,6.06,LR,1691628929
582,al mutayrifi,25.4788,49.5576,29.19,35,0,2.38,SA,1691628929
583,lerwick,60.1545,-1.1494,11.0,75,100,5.97,GB,1691628929
584,djelfa,34.6728,3.263,24.28,32,0,1.51,DZ,1691628929
585,krasnokamensk,50.0979,118.0369,22.0,53,98,2.6,RU,1691628930
586,zhuji,29.7188,120.2423,29.62,73,33,2.66,CN,1691628930
587,nha trang,12.25,109.1833,31.0,52,10,1.14,VN,1691628930
588,ortigueira,-24.2083,-50.9494,13.51,98,44,1.24,BR,1691628930
589,bel ombre,-4.6167,55.4167,24.91,88,20,3.09,SC,1691628931
590,hotan,37.0997,79.9269,27.65,29,13,1.11,CN,1691628746
591,abepura,-2.6333,140.5833,29.45,62,20,2.57,ID,1691628931
592,qina,26.1642,32.7267,30.06,25,0,3.23,EG,1691628931
593,swift current,50.2834,-107.8014,22.45,49,0,11.32,CA,1691628931
594,st. john's,47.5649,-52.7093,13.21,89,100,6.69,CA,1691628679
